City_ID,City,Country,Lat,Lng,Max Temp,Humidity,Cloudiness,Wind Speed,Current Description
0,Mende,FR,44.6667,3.5,34.52,97,100,14.63,light snow
1,Inhambane,MZ,-23.865,35.3833,76.73,81,75,14.16,broken clouds
2,Tiksi,RU,71.6872,128.8694,-16.83,98,100,6.17,overcast clouds
3,Port Alfred,ZA,-33.5906,26.891,73.96,78,98,4.9,overcast clouds
4,Mataura,NZ,-46.1927,168.8643,60.48,34,11,1.43,few clouds
5,Bluff,NZ,-46.6,168.3333,60.8,64,0,12.01,clear sky
6,Floro,NO,61.5996,5.0328,39.16,75,75,27.63,broken clouds
7,Jamestown,US,42.097,-79.2353,31.59,54,0,7.0,clear sky
8,Butaritari,KI,3.0707,172.7902,82.6,74,86,15.48,overcast clouds
9,Rikitea,PF,-23.1203,-134.9692,79.0,71,24,19.19,few clouds
10,Busselton,AU,-33.65,115.3333,67.05,56,65,20.0,broken clouds
11,Leh,IN,34.1667,77.5833,6.73,95,100,1.95,overcast clouds
12,Saskylakh,RU,71.9167,114.0833,-26.18,100,95,3.74,overcast clouds
13,Tuatapere,NZ,-46.1333,167.6833,60.82,44,0,6.76,clear sky
14,Mar Del Plata,AR,-38.0023,-57.5575,63.88,81,40,23.0,scattered clouds
15,Ribeira Grande,PT,38.5167,-28.7,61.18,84,10,14.58,clear sky
16,Chimbote,PE,-9.0853,-78.5783,71.1,76,100,6.06,overcast clouds
17,Pipar,IN,26.3856,73.5378,56.97,56,1,4.34,clear sky
18,New Norfolk,AU,-42.7826,147.0587,77.67,31,0,1.99,clear sky
19,Caravelas,BR,-17.7125,-39.2481,76.68,85,43,6.08,scattered clouds
20,Tuktoyaktuk,CA,69.4541,-133.0374,-27.4,68,75,12.66,broken clouds
21,Cape Town,ZA,-33.9258,18.4232,64.27,87,20,1.01,few clouds
22,Ushuaia,AR,-54.8,-68.3,62.26,63,75,11.5,broken clouds
23,El Salto,MX,20.3333,-104.5,56.82,57,100,4.99,overcast clouds
24,Lebu,CL,-37.6167,-73.65,59.47,91,1,15.26,clear sky
25,Kurilsk,RU,45.2333,147.8833,29.01,89,100,9.1,light snow
26,Kavaratti,IN,10.5669,72.642,77.52,67,16,6.17,few clouds
27,Pasni,PK,25.2631,63.471,69.58,84,0,4.99,clear sky
28,General Pico,AR,-35.6566,-63.7568,58.68,45,0,6.53,clear sky
29,Barra Dos Coqueiros,BR,-10.9089,-37.0386,80.62,78,40,6.91,scattered clouds
30,Lannion,FR,48.75,-3.4167,48.42,93,100,13.8,overcast clouds
31,Avarua,CK,-21.2078,-159.775,82.45,78,40,17.27,scattered clouds
32,Punta Arenas,CL,-53.15,-70.9167,51.91,87,75,6.91,broken clouds
33,Saint-Joseph,RE,-21.3667,55.6167,77.38,80,78,11.12,broken clouds
34,Hobart,AU,-42.8794,147.3294,78.03,47,20,1.01,few clouds
35,Krasnoselkup,RU,65.7,82.4667,-22.32,100,40,6.82,scattered clouds
36,Mirnyy,RU,62.5353,113.9611,-5.03,98,100,2.55,overcast clouds
37,Pangnirtung,CA,66.1451,-65.7125,-37.5,96,100,3.98,overcast clouds
38,Tura,IN,25.5198,90.2201,56.55,69,0,1.88,clear sky
39,Nome,US,64.5011,-165.4064,-0.33,55,0,13.8,clear sky
40,Hilo,US,19.7297,-155.09,75.25,88,80,1.99,broken clouds
41,Jining,CN,35.405,116.5814,42.01,1,100,2.42,overcast clouds
42,Hermanus,ZA,-34.4187,19.2345,63.9,92,87,3.89,overcast clouds
43,Santa Fe,AR,-31.6333,-60.7,61.92,75,0,7.05,clear sky
44,Souillac,MU,-20.5167,57.5167,77.38,83,40,6.91,scattered clouds
45,Dolgoye,RU,52.8,37.2167,24.35,96,100,10.02,snow
46,Pipri,IN,19.8,75.5333,59.58,72,82,0.0,haze
47,Atuona,PF,-9.8,-139.0333,78.84,74,8,16.75,clear sky
48,Rio Grande,BR,-32.035,-52.0986,64.51,61,0,14.74,clear sky
49,Aranos,NA,-24.1333,19.1167,74.84,54,99,5.37,overcast clouds
50,Barkhan,PK,29.8977,69.5256,46.0,51,0,3.18,clear sky
51,Korla,CN,41.7597,86.1469,22.6,49,73,3.51,broken clouds
52,Touros,BR,-5.1989,-35.4608,79.7,74,22,9.37,few clouds
53,Nanortalik,GL,60.1432,-45.2371,18.88,65,100,42.73,overcast clouds
54,The Valley,AI,18.217,-63.0578,77.09,71,84,22.97,broken clouds
55,Hofn,IS,64.2539,-15.2082,30.2,67,100,12.12,overcast clouds
56,Cleveland,US,41.4995,-81.6954,31.87,75,0,11.5,clear sky
57,Okhotsk,RU,59.3833,143.3,2.14,70,94,9.31,overcast clouds
58,Vila Velha,BR,-20.3297,-40.2925,80.55,86,75,5.99,broken clouds
59,Isabela,PH,6.7085,121.9711,84.25,69,96,8.1,overcast clouds
60,Diffa,NE,13.3154,12.6113,62.42,31,0,10.31,clear sky
61,Cidreira,BR,-30.1811,-50.2056,69.22,72,10,9.4,clear sky
62,Vila Franca Do Campo,PT,37.7167,-25.4333,60.19,84,30,11.99,scattered clouds
63,Kodiak,US,57.79,-152.4072,34.14,69,100,7.07,overcast clouds
64,Whyalla,AU,-33.0333,137.5833,87.69,23,5,16.11,clear sky
65,Airai,TL,-8.9266,125.4092,74.35,62,5,2.06,clear sky
66,Albany,US,42.6001,-73.9662,20.3,80,10,2.93,clear sky
67,Mvuma,ZW,-19.2792,30.5283,57.9,91,20,11.25,few clouds
68,Bulgan,MN,48.8125,103.5347,1.42,80,10,3.31,clear sky
69,Longyearbyen,SJ,78.2186,15.6401,19.24,68,0,5.75,clear sky
70,Rochester,US,43.1548,-77.6156,30.07,65,27,1.01,scattered clouds
71,Port-Gentil,GA,-0.7193,8.7815,79.72,84,25,10.76,scattered clouds
72,Sola,VU,-13.8833,167.55,82.81,80,100,20.29,moderate rain
73,Katsuura,JP,35.1333,140.3,44.71,32,11,7.07,few clouds
74,Kamenka,RU,51.3223,42.7678,13.5,100,89,5.91,overcast clouds
75,Ngunguru,NZ,-35.6167,174.5,77.16,98,100,7.9,overcast clouds
76,Pecos,US,31.4229,-103.4932,53.69,24,75,11.5,broken clouds
77,Dikson,RU,73.5069,80.5464,-14.06,97,100,15.68,overcast clouds
78,Vaini,TO,-21.2,-175.2,78.96,94,100,12.66,light rain
79,Tecoanapa,MX,16.5167,-98.75,79.54,72,49,9.04,scattered clouds
80,Darfo,IT,45.8779,10.1812,47.86,75,74,5.53,broken clouds
81,Meulaboh,ID,4.1363,96.1285,77.4,84,100,1.41,overcast clouds
82,Saint-Philippe,RE,-21.3585,55.7679,78.39,85,91,13.87,overcast clouds
83,Kysyl-Syr,RU,63.8986,122.7617,-24.27,97,97,6.76,overcast clouds
84,Barabai,ID,-2.5833,115.3833,80.22,86,99,2.91,light rain
85,Nouadhibou,MR,20.931,-17.0347,65.1,80,94,13.31,overcast clouds
86,Qaanaaq,GL,77.484,-69.3632,-11.67,58,32,7.99,scattered clouds
87,Florencia,IT,43.7667,11.25,53.29,90,75,6.91,broken clouds
88,Yulara,AU,-25.2406,130.9889,87.64,22,0,8.05,clear sky
89,Labuhan,ID,-6.8844,112.2051,82.18,80,100,14.63,overcast clouds
90,Agadez,NE,19.75,10.25,56.37,17,0,5.03,clear sky
91,Severo-Kurilsk,RU,50.6789,156.125,32.16,80,100,9.82,overcast clouds
92,Barrow,US,71.2906,-156.7887,-31.07,97,14,11.05,few clouds
93,Sur,OM,22.5667,59.5289,69.21,65,0,11.07,clear sky
94,Lermontovka,RU,47.1453,134.3383,7.5,88,100,5.68,overcast clouds
95,Sivas,TR,39.7916,37.0019,-2.04,99,63,2.84,broken clouds
96,Beidao,CN,34.5686,105.8933,24.39,85,100,3.06,overcast clouds
97,Samarai,PG,-10.6167,150.6667,85.44,68,93,11.27,overcast clouds
98,Hovd,MN,48.0056,91.6419,-13.68,68,12,3.18,few clouds
99,Lompoc,US,34.6391,-120.4579,62.91,66,0,9.22,clear sky
100,Koufalia,GR,40.7778,22.5719,49.91,88,0,2.42,clear sky
101,Bambous Virieux,MU,-20.3428,57.7575,77.25,83,40,6.91,light rain
102,East London,ZA,-33.0153,27.9116,71.08,84,99,14.05,overcast clouds
103,Galesong,ID,-5.3166,119.3661,80.62,74,17,10.4,few clouds
104,Viedma,AR,-40.8135,-62.9967,62.04,71,0,10.65,clear sky
105,Constitucion,CL,-35.3333,-72.4167,58.06,83,0,5.97,clear sky
106,Clyde River,CA,70.4692,-68.5914,-30.77,68,0,10.36,clear sky
107,Salamanca,ES,40.8333,-6.0,22.78,60,65,6.87,broken clouds
108,Pevek,RU,69.7008,170.3133,-23.03,98,30,1.01,scattered clouds
109,Galle,LK,6.0367,80.217,79.23,72,99,1.16,overcast clouds
110,Khatanga,RU,71.9667,102.5,-15.99,98,99,9.55,overcast clouds
111,Bethel,US,41.3712,-73.414,27.75,81,35,2.42,scattered clouds
112,Saint George,US,37.1041,-113.5841,53.26,16,0,6.71,clear sky
113,Lloydminster,CA,53.2835,-110.0016,35.82,69,20,14.97,few clouds
114,Baykit,RU,61.67,96.37,-11.78,100,50,3.42,scattered clouds
115,Tuy Hoa,VN,13.0833,109.3,75.36,86,84,5.84,broken clouds
116,Ilhabela,BR,-23.7781,-45.3581,75.79,96,100,3.38,overcast clouds
117,Drayton Valley,CA,53.2168,-114.9854,35.91,85,99,7.52,overcast clouds
118,Pacific Grove,US,36.6177,-121.9166,64.02,72,0,1.99,clear sky
119,Mahebourg,MU,-20.4081,57.7,77.29,83,40,6.91,scattered clouds
120,Carnarvon,AU,-24.8667,113.6333,77.07,41,7,20.71,clear sky
121,Ormara,PK,25.2088,64.6357,70.32,83,16,6.69,few clouds
122,Bitung,ID,1.4451,125.1824,85.05,75,74,10.96,broken clouds
123,Honiton,GB,50.7996,-3.189,44.76,83,9,1.99,clear sky
124,Taoudenni,ML,22.6783,-3.9836,65.59,14,2,10.22,clear sky
125,Puerto Ayora,EC,-0.7393,-90.3518,73.54,93,19,3.0,few clouds
126,Juneau,US,58.3019,-134.4197,41.85,99,100,5.01,overcast clouds
127,Ibotirama,BR,-12.1853,-43.2206,70.11,96,100,3.62,overcast clouds
128,Ostrovnoy,RU,68.0531,39.5131,11.84,88,16,19.71,few clouds
129,Talnakh,RU,69.4865,88.3972,-28.37,99,56,0.51,broken clouds
130,Aitape,PG,-3.1374,142.3475,83.25,74,100,4.83,overcast clouds
131,Balaka,MW,-14.9793,34.9558,64.29,95,9,3.09,clear sky
132,Thompson,CA,55.7435,-97.8558,-7.44,71,100,4.61,overcast clouds
133,Kapaa,US,22.0752,-159.319,79.2,70,14,4.0,few clouds
134,Seymchan,RU,62.8833,152.4333,-29.09,94,38,1.54,scattered clouds
135,Wanaka,NZ,-44.7,169.15,65.71,51,100,2.53,overcast clouds
136,Jardim,BR,-21.4803,-56.1381,71.76,77,83,4.03,broken clouds
137,Hambantota,LK,6.1241,81.1185,77.34,88,40,4.61,scattered clouds
138,Kiama,AU,-34.6833,150.8667,76.24,63,42,15.43,light rain
139,Hasaki,JP,35.7333,140.8333,45.28,37,6,9.13,clear sky
140,Akcaabat,TR,41.0212,39.5715,42.67,70,75,4.61,broken clouds
141,Alexandria,EG,31.2156,29.9553,51.76,82,0,3.44,clear sky
142,Castro,BR,-24.7911,-50.0119,63.09,80,4,2.48,clear sky
143,Sao Filipe,CV,14.8961,-24.4956,72.61,76,0,5.19,clear sky
144,Bathsheba,BB,13.2167,-59.5167,79.41,78,75,14.97,broken clouds
145,Huamachuco,PE,-7.8,-78.0667,51.87,85,100,0.58,light rain
146,Gazli,UZ,40.1333,63.45,34.25,66,96,4.0,overcast clouds
147,Grindavik,IS,63.8424,-22.4338,30.67,93,100,35.68,heavy snow
148,Talaya,RU,61.3833,152.75,-18.53,79,3,0.45,clear sky
149,Strezhevoy,RU,60.7333,77.5889,-2.02,98,10,7.92,clear sky
150,Ambon,ID,-3.6954,128.1814,86.14,70,40,2.3,scattered clouds
151,Port Macquarie,AU,-31.4333,152.9167,75.88,55,66,15.88,broken clouds
152,Chokurdakh,RU,70.6333,147.9167,-40.41,99,75,2.91,broken clouds
153,Ilulissat,GL,69.2167,-51.1,-2.49,99,100,6.4,overcast clouds
154,San Patricio,US,28.017,-97.5169,59.68,82,100,10.83,overcast clouds
155,Nuuk,GL,64.1835,-51.7216,1.8,71,100,7.58,overcast clouds
156,Chapais,CA,49.7834,-74.8492,4.78,95,100,6.08,light snow
157,Luderitz,NA,-26.6481,15.1594,68.68,74,49,3.22,scattered clouds
158,Upernavik,GL,72.7868,-56.1549,-16.49,100,100,7.74,overcast clouds
159,Iqaluit,CA,63.7506,-68.5145,-36.31,73,0,3.0,clear sky
160,Talakan,RU,50.3167,130.3667,-1.21,90,100,0.58,overcast clouds
161,Manono,CD,-7.3,27.4167,67.3,99,100,2.3,light rain
162,Klaksvik,FO,62.2266,-6.589,32.92,51,100,20.38,overcast clouds
163,Bredasdorp,ZA,-34.5322,20.0403,62.28,88,12,3.44,few clouds
164,Shakiso,ET,5.75,38.9167,53.98,37,14,4.07,few clouds
165,Aykhal,RU,66.0,111.5,-15.57,100,99,6.35,overcast clouds
166,Sterlibashevo,RU,53.4376,55.2578,14.59,97,100,3.29,overcast clouds
167,Vao,NC,-22.6667,167.4833,80.67,83,54,9.91,broken clouds
168,Ayan,RU,56.45,138.1667,5.05,61,91,6.42,overcast clouds
169,Alyangula,AU,-13.8483,136.4192,85.87,74,55,3.44,broken clouds
170,Bowen,AU,-20.0167,148.2333,82.62,55,85,18.52,overcast clouds
171,Sena Madureira,BR,-9.0656,-68.6569,72.84,98,100,1.14,overcast clouds
172,Puerto Del Rosario,ES,28.5004,-13.8627,64.15,88,10,17.27,clear sky
173,Taltal,CL,-25.4,-70.4833,67.86,73,3,4.27,clear sky
174,Atasu,KZ,48.6814,71.6433,25.25,96,100,15.1,light snow
175,Potsdam,DE,52.3989,13.0657,39.11,90,100,4.0,overcast clouds
176,Beringovskiy,RU,63.05,179.3167,-12.82,94,19,5.19,few clouds
177,Chuy,UY,-33.6971,-53.4616,63.37,68,13,16.75,few clouds
178,Sitka,US,57.0531,-135.33,44.49,76,100,10.36,overcast clouds
179,Sal Rei,CV,16.1833,-22.9167,68.56,81,3,13.65,clear sky
180,Yinchuan,CN,38.4681,106.2731,22.33,86,100,3.4,light snow
181,Nikolskoye,RU,59.7035,30.7861,35.87,97,100,8.05,overcast clouds
182,El Alto,PE,-4.2714,-81.2147,69.53,82,31,11.12,scattered clouds
183,Ridgecrest,US,35.6225,-117.6709,61.47,17,0,1.01,clear sky
184,Saint-Francois,FR,46.4154,3.9054,49.44,88,100,14.97,overcast clouds
185,Kaitangata,NZ,-46.2817,169.8464,59.94,78,78,8.25,broken clouds
186,Merauke,ID,-8.4667,140.3333,86.58,64,100,6.6,overcast clouds
187,Olavarria,AR,-36.8927,-60.3225,61.02,87,0,7.72,clear sky
188,Wanning,CN,18.8003,110.3967,74.01,87,59,6.69,broken clouds
189,Namatanai,PG,-3.6667,152.4333,85.93,65,100,6.38,overcast clouds
190,Rocha,UY,-34.4833,-54.3333,63.41,85,100,14.88,overcast clouds
191,Saint Anthony,US,45.0205,-93.218,12.4,69,75,5.01,broken clouds
192,Guozhen,CN,34.3659,107.359,30.38,80,100,4.14,light snow
193,Raudeberg,NO,61.9875,5.1352,39.2,88,100,5.01,overcast clouds
194,Santa Rosa,PH,14.3122,121.1114,83.1,79,100,17.18,overcast clouds
195,Yellowknife,CA,62.456,-114.3525,-1.59,91,75,4.61,light snow
196,Mount Gambier,AU,-37.8333,140.7667,85.91,20,0,12.66,clear sky
197,Hithadhoo,MV,-0.6,73.0833,82.31,70,43,14.9,scattered clouds
198,Cangzhou,CN,38.3167,116.8667,35.13,32,99,1.25,overcast clouds
199,Kenai,US,60.5544,-151.2583,28.15,92,75,3.44,broken clouds
200,Neuquen,AR,-38.9516,-68.0591,76.53,18,0,11.21,clear sky
201,Codrington,AU,-38.2667,141.9667,83.23,28,0,9.04,clear sky
202,Half Moon Bay,US,37.4636,-122.4286,63.77,64,0,1.01,clear sky
203,Harper,LR,4.375,-7.7169,78.94,83,100,6.35,overcast clouds
204,Lagoa,PT,39.05,-27.9833,59.65,85,7,15.75,clear sky
205,Bilibino,RU,68.0546,166.4372,-10.53,78,17,3.96,few clouds
206,Ryotsu,JP,38.0833,138.4333,36.27,56,100,14.83,overcast clouds
207,Kruisfontein,ZA,-34.0033,24.7314,66.88,66,0,2.39,clear sky
208,Abha,SA,18.2164,42.5053,50.34,88,21,3.49,few clouds
209,Berlevag,NO,70.8578,29.0864,19.38,86,53,21.03,broken clouds
210,Karratha,AU,-20.7377,116.8463,89.65,60,50,9.26,scattered clouds
211,Fairbanks,US,64.8378,-147.7164,-2.9,78,100,2.73,overcast clouds
212,Sao Sepe,BR,-30.1606,-53.5653,60.35,68,0,3.33,clear sky
213,Muros,ES,42.7762,-9.0603,51.24,91,24,8.84,few clouds
214,Rassvet,RU,46.8333,40.75,32.31,100,97,11.18,overcast clouds
215,Ancud,CL,-41.8697,-73.8203,60.33,87,5,3.74,clear sky
216,Payson,US,40.0444,-111.7321,36.27,55,1,0.2,clear sky
217,Cabo San Lucas,MX,22.8909,-109.9124,67.14,68,0,2.59,clear sky
218,Dasoguz,TM,41.8363,59.9666,30.31,61,78,7.47,broken clouds
219,Gobabis,NA,-22.45,18.9667,67.75,61,53,6.87,broken clouds
220,Najran,SA,17.4924,44.1277,51.37,58,26,3.33,scattered clouds
221,Norman Wells,CA,65.282,-126.8329,-12.96,70,100,19.57,light snow
222,Kamina,CD,-8.7386,24.9906,63.55,97,100,4.56,overcast clouds
223,Itainopolis,BR,-7.4469,-41.4783,73.54,80,87,2.84,overcast clouds
224,Mecca,SA,21.4267,39.8261,63.7,48,0,2.73,clear sky
225,Agogo,GH,6.8,-1.0819,71.19,91,69,3.04,broken clouds
226,Ponta Do Sol,PT,32.6667,-17.1,63.23,67,5,10.47,clear sky
227,Hov,NO,60.6987,10.3519,21.09,94,49,4.05,scattered clouds
228,Yarada,IN,17.65,83.2667,64.72,100,20,2.3,mist
229,Esperance,AU,-33.8667,121.9,67.42,53,27,26.98,scattered clouds
230,Kerman,IR,30.2832,57.0788,41.74,46,0,3.0,clear sky
231,Kangaatsiaq,GL,68.3065,-53.4641,7.84,86,100,24.25,overcast clouds
232,Puksoozero,RU,62.5903,40.6066,9.1,94,98,8.08,overcast clouds
233,Kavieng,PG,-2.5744,150.7967,83.43,72,69,3.09,broken clouds
234,Vardo,NO,70.3705,31.1107,23.2,82,70,20.45,broken clouds
235,Nicoya,CR,10.1483,-85.452,75.83,69,4,8.66,clear sky
236,Bagdarin,RU,54.4333,113.6,1.02,84,74,1.68,broken clouds
237,Cherskiy,RU,68.75,161.3,-27.71,99,23,0.34,few clouds
238,Vorontsovka,RU,50.6132,40.3549,18.75,98,90,6.78,overcast clouds
239,Naze,JP,28.3667,129.4833,53.71,59,100,3.6,overcast clouds
240,Bessonovka,RU,53.3097,45.0407,9.95,98,99,3.31,overcast clouds
241,Kosh-Agach,RU,50.0,88.6667,-26.19,78,61,2.44,broken clouds
242,Douglas,US,41.3,-96.167,34.9,54,0,3.0,clear sky
243,Carutapera,BR,-1.195,-46.02,75.85,93,100,4.47,overcast clouds
244,Georgetown,MY,5.4112,100.3354,80.89,81,20,0.0,few clouds
245,Erzin,TR,36.9559,36.2,38.12,74,0,3.71,clear sky
246,Alta Floresta,BR,-9.8756,-56.0861,72.39,96,94,1.54,light rain
247,Irituia,BR,-1.7711,-47.4381,73.53,98,100,2.48,light rain
248,Beyneu,KZ,45.3167,55.2,29.12,85,97,6.98,overcast clouds
249,Komsomolskiy,UZ,40.4272,71.7189,38.12,87,100,4.61,overcast clouds
250,Provideniya,RU,64.3833,-173.3,3.31,66,0,8.95,clear sky
251,Shimoda,JP,34.6667,138.95,43.11,86,99,1.52,overcast clouds
252,Tasiilaq,GL,65.6145,-37.6368,23.16,54,100,56.8,light snow
253,Camopi,GF,3.1655,-52.3158,71.85,99,100,1.88,light rain
254,Shiraz,IR,29.6036,52.5388,38.16,38,0,3.65,clear sky
255,Colares,PT,38.7992,-9.4469,53.8,52,1,5.01,clear sky
256,Hazorasp,UZ,41.3194,61.0742,30.04,62,41,6.64,scattered clouds
257,Torbay,CA,47.6666,-52.7314,12.58,78,71,3.0,broken clouds
258,Victoria,HK,22.2855,114.1577,66.18,90,100,17.0,overcast clouds
259,Kawalu,ID,-7.3817,108.2082,79.95,75,100,3.62,overcast clouds
260,Padang,ID,-0.9492,100.3543,78.85,72,100,1.05,moderate rain
261,Portland,US,45.5234,-122.6762,53.04,78,32,1.01,scattered clouds
262,Palmer,US,42.1584,-72.3287,21.85,81,50,1.83,scattered clouds
263,Geraldton,AU,-28.7667,114.6,75.61,38,40,18.41,scattered clouds
264,Dunedin,NZ,-45.8742,170.5036,63.81,63,100,4.0,overcast clouds
265,Roros,NO,62.5747,11.3842,24.64,74,75,11.5,broken clouds
266,Coromandel,BR,-18.4733,-47.2003,64.76,98,100,1.86,moderate rain
267,Mandalgovi,MN,45.7625,106.2708,6.85,62,8,3.31,clear sky
268,Aguimes,ES,27.9054,-15.4461,61.43,77,20,20.71,few clouds
269,Salalah,OM,17.0151,54.0924,68.58,28,83,15.17,broken clouds
270,Seddon,AU,-37.8068,144.8916,85.6,44,0,5.99,clear sky
271,Arraial Do Cabo,BR,-22.9661,-42.0278,75.79,90,0,20.27,clear sky
272,Fort Nelson,CA,58.8053,-122.7002,31.69,80,100,4.16,overcast clouds
273,Mogadishu,SO,2.0371,45.3438,76.03,77,53,19.66,broken clouds
274,Isangel,VU,-19.55,169.2667,82.51,94,100,1.14,drizzle
275,Paracuru,BR,-3.41,-39.0306,82.11,79,0,7.67,clear sky
276,Lukaya,UG,-0.1489,31.8748,63.88,86,100,4.56,overcast clouds
277,Simao,CN,22.7886,100.9748,54.95,83,8,2.46,clear sky
278,Bintulu,MY,3.1667,113.0333,77.49,89,100,5.53,overcast clouds
279,Byron Bay,AU,-28.65,153.6167,78.75,67,77,17.45,broken clouds
280,Muli,MV,2.9167,73.5667,81.45,63,14,11.41,few clouds
281,San Pedro,PH,14.35,121.0167,82.35,78,75,3.44,broken clouds
282,Roseburg,US,43.2165,-123.3417,53.51,77,3,1.36,clear sky
283,Umm Kaddadah,SD,13.6017,26.6876,53.31,29,82,14.29,broken clouds
284,Fallon,US,39.4735,-118.7774,44.46,32,0,1.86,clear sky
285,Abidjan,CI,5.3094,-4.0197,78.76,94,40,3.44,scattered clouds
286,Sangar,RU,63.9242,127.4739,-29.27,93,98,2.39,overcast clouds
287,Bodden Town,KY,19.2833,-81.25,77.94,84,75,1.99,broken clouds
288,Brainerd,US,46.358,-94.2008,3.49,95,27,6.78,scattered clouds
289,Belyy Yar,RU,53.6039,91.3903,-2.31,78,100,2.24,mist
290,Kasongo,CD,-4.45,26.6667,65.17,99,100,4.81,light rain
291,Bartica,GY,6.4,-58.6167,73.35,98,100,2.13,light rain
292,Lufilufi,WS,-13.8745,-171.5986,85.78,76,100,17.74,light rain
293,Zhigansk,RU,66.7697,123.3711,-32.46,100,92,3.94,overcast clouds
294,Tacuarembo,UY,-31.7333,-55.9833,58.82,56,0,6.85,clear sky
295,Srednekolymsk,RU,67.45,153.6833,-26.46,96,36,1.54,scattered clouds
296,Mantua,IT,45.1667,10.7833,43.43,92,3,7.0,clear sky
297,Huilong,CN,31.8111,121.655,41.04,96,100,14.0,light rain
298,Namibe,AO,-15.1961,12.1522,72.68,69,94,8.48,overcast clouds
299,Constantine,DZ,36.365,6.6147,38.61,93,20,1.14,few clouds
300,Odweyne,SO,9.4092,45.064,62.24,74,96,8.43,overcast clouds
301,Beroroha,MG,-21.6667,45.1667,76.01,78,100,16.26,overcast clouds
302,Poniatowa,PL,51.1798,22.1309,39.42,88,100,17.18,overcast clouds
303,Tashir,AM,41.1207,44.2846,12.34,71,54,6.62,broken clouds
304,Comodoro Rivadavia,AR,-45.8667,-67.5,66.69,58,7,3.85,clear sky
305,Fare,PF,-16.7,-151.0167,80.87,74,77,19.17,light rain
306,Parry Sound,CA,45.3501,-80.033,26.22,93,100,10.2,overcast clouds
307,Rongcheng,CN,30.634,117.8517,34.56,100,100,3.56,snow
308,Pakxan,LA,18.3778,103.6601,80.02,65,83,3.6,broken clouds
309,Mahibadhoo,MV,3.7833,72.9667,80.98,65,65,10.54,broken clouds
310,Tabuk,PH,17.4189,121.4443,71.98,89,100,1.95,overcast clouds
311,Anadyr,RU,64.75,177.4833,-16.1,76,74,6.71,fog
312,Raga,SS,8.4596,25.678,61.74,22,39,5.06,scattered clouds
313,Narsaq,GL,60.9167,-46.05,8.82,81,100,8.08,overcast clouds
314,Gola Bazar,IN,26.3431,83.3553,50.76,82,0,2.46,clear sky
315,Yerbogachen,RU,61.2767,108.0108,-10.62,99,98,2.66,overcast clouds
316,Presidente Medici,BR,-11.1753,-61.9014,72.95,97,99,4.0,overcast clouds
317,Poum,NC,-20.2333,164.0167,81.61,85,100,21.36,overcast clouds
318,Ulcinj,ME,41.9294,19.2244,49.41,84,54,4.07,broken clouds
319,Evensk,RU,61.95,159.2333,5.04,72,0,6.96,clear sky
320,Goderich,CA,43.7501,-81.7165,28.9,88,100,16.67,overcast clouds
321,Agua Verde,MX,22.9,-106.05,70.03,73,54,11.88,broken clouds
322,Lethem,GY,3.3803,-59.7968,77.97,76,98,7.85,heavy intensity rain
323,Roebourne,AU,-20.7833,117.1333,88.83,62,65,8.99,broken clouds
324,Acapulco,MX,16.8634,-99.8901,78.24,71,2,9.48,clear sky
325,Port Lincoln,AU,-34.7333,135.8667,79.43,48,0,17.78,clear sky
326,Faanui,PF,-16.4833,-151.75,81.23,74,100,18.9,light rain
327,Yurino,RU,56.2942,46.3039,6.12,100,90,3.96,overcast clouds
328,Langarud,IR,37.197,50.1535,45.18,74,100,1.54,overcast clouds
329,Matara,LK,5.9485,80.5353,77.36,81,100,3.71,overcast clouds
330,Lakes Entrance,AU,-37.8811,147.981,69.17,63,1,10.38,clear sky
331,Pundaguitan,PH,6.3711,126.1689,80.42,78,61,18.75,broken clouds
332,Daru,PG,-9.0763,143.2092,84.92,72,100,4.5,overcast clouds
333,Orsha,BY,54.5153,30.4053,31.8,95,100,15.59,overcast clouds
334,Brodnica,PL,53.2597,19.3965,42.26,73,100,17.45,overcast clouds
335,Sao Felix Do Xingu,BR,-6.6447,-51.995,72.27,97,95,1.01,overcast clouds
336,Dryden,CA,49.7833,-92.7503,-4.54,100,61,2.64,broken clouds
337,Mehamn,NO,71.0357,27.8492,18.37,84,86,13.18,overcast clouds
338,Mountain Home,US,43.133,-115.6912,31.78,88,15,6.31,few clouds
339,Hakui,JP,36.8833,136.7833,40.24,71,99,6.6,overcast clouds
340,Amposta,ES,40.7131,0.581,54.54,56,3,7.0,clear sky
341,Port Elizabeth,ZA,-33.918,25.5701,69.1,73,37,2.95,scattered clouds
342,Kudahuvadhoo,MV,2.6708,72.8944,81.23,64,24,11.1,few clouds
343,Homer,US,59.6425,-151.5483,27.77,95,100,11.95,overcast clouds
344,Karangampel,ID,-6.4622,108.4519,77.68,88,100,9.86,moderate rain
345,Inirida,CO,3.8653,-67.9239,77.31,82,87,1.05,overcast clouds
346,Salekhard,RU,66.53,66.6019,-22.95,100,100,1.5,overcast clouds
347,Bucerias,MX,20.75,-105.3333,73.38,83,75,8.05,broken clouds
348,Weligama,LK,5.9667,80.4167,77.86,78,100,2.77,overcast clouds
349,Varnamo,SE,57.186,14.04,34.11,94,9,5.99,clear sky
350,Sukumo,JP,32.9333,132.7333,47.62,47,98,9.04,overcast clouds
351,Itarema,BR,-2.9248,-39.9167,79.25,76,1,12.28,clear sky
352,Ketchikan,US,55.3422,-131.6461,46.38,87,100,16.11,overcast clouds
353,Waldkraiburg,DE,48.2085,12.3989,37.49,98,100,25.59,snow
354,Yenagoa,NG,4.9247,6.2642,75.79,88,1,2.26,clear sky
355,Gresham,US,45.4982,-122.4315,52.72,76,0,1.99,clear sky
356,Batticaloa,LK,7.7102,81.6924,76.26,79,33,6.8,scattered clouds
357,Parkes,AU,-33.1333,148.1833,82.35,35,0,8.63,clear sky
358,Jasper,US,37.2001,-94.3502,35.04,71,8,3.65,clear sky
359,Makat,KZ,47.6469,53.3463,22.93,87,100,8.41,overcast clouds
360,Karpogory,RU,64.0019,44.4451,10.15,95,100,7.34,overcast clouds
361,Saldanha,ZA,-33.0117,17.9442,62.55,99,32,7.25,scattered clouds
362,Deputatskiy,RU,69.3,139.9,-32.8,95,83,4.76,broken clouds
363,Tecolutilla,MX,18.2833,-93.3167,66.2,93,49,4.92,scattered clouds
364,Lazaro Cardenas,MX,17.9583,-102.2,76.23,67,13,7.67,few clouds
365,Superior,US,46.7208,-92.1041,14.49,71,100,5.75,overcast clouds
366,Guerrero Negro,MX,27.9769,-114.0611,61.16,48,0,9.6,clear sky
367,Xining,CN,36.6167,101.7667,10.99,80,89,1.54,overcast clouds
368,Emerald,AU,-23.5333,148.1667,83.34,39,0,11.65,clear sky
369,Abu Zabad,SD,12.35,29.25,56.12,24,2,14.32,clear sky
370,Mporokoso,ZM,-9.3727,30.125,60.33,99,100,3.56,light rain
371,Peterhead,GB,57.5058,-1.7981,39.11,69,12,20.38,few clouds
372,Zemio,CF,5.0314,25.1361,63.0,26,13,4.18,few clouds
373,Avenal,US,36.0041,-120.129,60.1,43,0,2.86,clear sky
374,San Jeronimo,PE,-11.9472,-75.2829,49.17,85,100,0.2,light rain
375,Goure,NE,13.9835,10.2704,64.02,13,0,9.6,clear sky
376,Hualmay,PE,-11.0964,-77.6139,70.57,79,100,8.59,overcast clouds
377,Rio Gallegos,AR,-51.6226,-69.2181,58.24,66,65,24.02,broken clouds
378,College,US,64.8569,-147.8028,-3.42,78,100,0.0,overcast clouds
379,Egvekinot,RU,66.3167,-179.1667,-11.78,84,1,8.55,clear sky
380,Gotemba,JP,35.3,138.9333,41.92,58,63,4.5,broken clouds
381,Roma,US,43.2128,-75.4557,26.46,72,0,8.05,clear sky
382,Mount Isa,AU,-20.7333,139.5,87.57,40,75,11.5,broken clouds
383,Qasigiannguit,GL,68.8193,-51.1922,3.45,98,100,8.52,light snow
384,Lavrentiya,RU,65.5833,-171.0,-14.1,95,43,2.46,scattered clouds
385,Aksu,CN,41.1231,80.2644,20.23,48,100,0.6,overcast clouds
386,Maneadero,MX,31.7167,-116.5667,59.11,68,0,6.11,clear sky
387,Mananjary,MG,-21.2167,48.3333,76.42,96,98,4.63,light rain
388,Yaan,NG,7.3833,8.5667,75.56,17,0,4.23,clear sky
389,Bloomfield,US,40.8068,-74.1854,30.63,79,28,3.49,scattered clouds
390,Grand-Lahou,CI,5.1367,-5.0242,78.53,87,40,5.06,scattered clouds
391,Hami,CN,42.8,93.45,24.66,37,73,5.84,broken clouds
392,Dingle,PH,10.9995,122.6711,82.54,66,56,15.28,broken clouds
393,Westport,US,41.1415,-73.3579,30.79,75,75,5.01,broken clouds
394,Bengkulu,ID,-3.8004,102.2655,79.0,80,98,9.51,overcast clouds
395,Chernyshevskiy,RU,63.0128,112.4714,-6.63,98,100,2.89,overcast clouds
396,Necochea,AR,-38.5473,-58.7368,60.04,64,95,12.97,overcast clouds
397,Agar,IN,23.7,76.0167,56.48,32,0,5.03,clear sky
398,Walvis Bay,NA,-22.9575,14.5053,68.09,79,91,5.28,overcast clouds
399,Achinsk,RU,56.2694,90.4993,1.38,92,93,5.46,overcast clouds
400,Cehegin,ES,38.0924,-1.7985,41.16,84,0,3.49,clear sky
401,Mocuba,MZ,-16.8392,36.9856,70.52,99,100,5.23,overcast clouds
402,Bandarbeyla,SO,9.4942,50.8122,74.46,75,98,12.48,overcast clouds
403,Bambanglipuro,ID,-7.95,110.2833,82.94,74,100,5.55,overcast clouds
404,Caluquembe,AO,-13.7833,14.6833,61.09,56,100,2.26,overcast clouds
405,Willowmore,ZA,-33.2926,23.4895,69.58,59,0,1.07,clear sky
406,San Policarpo,PH,12.1791,125.5072,82.13,74,40,15.95,scattered clouds
407,Kizukuri,JP,40.8061,140.3861,32.11,40,100,14.32,light snow
408,Rawson,AR,-43.3002,-65.1023,65.03,47,0,17.98,clear sky
409,Preobrazheniye,RU,42.9019,133.9064,17.37,46,7,7.87,clear sky
410,Hare Bay,CA,48.8499,-54.0148,4.19,78,5,8.84,clear sky
411,Venado Tuerto,AR,-33.7456,-61.9688,56.77,62,0,3.56,clear sky
412,Senekal,ZA,-28.3197,27.6208,58.12,87,37,5.19,scattered clouds
413,Erenhot,CN,43.6475,111.9767,6.87,77,3,5.68,clear sky
414,Lorengau,PG,-2.0226,147.2712,83.32,78,99,7.67,overcast clouds
415,Sorland,NO,67.667,12.6934,35.38,87,100,12.71,light rain
416,Indiaroba,BR,-11.5192,-37.5117,76.05,86,25,2.93,scattered clouds
417,Thunder Bay,CA,48.4001,-89.3168,10.56,75,96,4.0,overcast clouds
418,Alice Springs,AU,-23.7,133.8833,83.75,28,0,3.44,clear sky
419,Fort Frances,CA,48.5999,-93.4003,2.61,98,100,4.05,overcast clouds
420,Qui Nhon,VN,13.7667,109.2333,74.95,83,80,6.46,broken clouds
421,Danane,CI,7.2596,-8.155,65.97,53,97,1.9,overcast clouds
422,Christchurch,NZ,-43.5333,172.6333,64.33,65,20,3.0,few clouds
423,Aklavik,CA,68.2191,-135.0107,-23.08,93,100,18.95,overcast clouds
424,Gat,IL,31.61,34.7642,54.91,100,4,6.69,clear sky
425,Maniitsoq,GL,65.4167,-52.9,2.62,82,100,14.45,overcast clouds
426,Hettstedt,DE,51.65,11.5,34.95,69,75,21.79,broken clouds
427,Sechura,PE,-5.5569,-80.8222,72.54,74,80,13.98,broken clouds
428,Masvingo,ZW,-20.0637,30.8277,59.9,91,8,7.31,clear sky
429,Antalaha,MG,-14.9003,50.2788,74.82,85,51,4.21,broken clouds
430,Havelock,US,34.8791,-76.9013,43.02,85,71,1.01,broken clouds
431,Esna,EG,25.2934,32.554,53.87,43,0,9.13,clear sky
432,Pagudpud,PH,18.5616,120.7868,79.59,69,93,12.73,overcast clouds
433,Cap Malheureux,MU,-19.9842,57.6142,76.46,86,100,1.99,overcast clouds
434,Ilinskiy,RU,55.619,38.1182,27.37,93,100,7.52,overcast clouds
435,Maceio,BR,-9.6658,-35.7353,76.44,83,20,3.44,few clouds
436,Richards Bay,ZA,-28.783,32.0377,71.31,91,78,2.66,light rain
437,Barabinsk,RU,55.3571,78.357,-7.65,93,95,5.5,overcast clouds
438,Abonnema,NG,4.7084,6.7931,77.94,85,0,3.13,clear sky
439,Bakuriani,GE,41.7497,43.5325,10.63,91,100,5.28,overcast clouds
440,Hervey Bay,AU,-25.2986,152.8535,75.04,89,97,13.0,light rain
441,Birpur,IN,26.5167,87.0167,56.3,70,3,2.84,clear sky
442,Santa Isabel,BR,-23.3156,-46.2214,75.65,98,100,2.01,moderate rain
443,Lapua,FI,62.9693,23.0088,29.46,88,100,8.99,overcast clouds
444,Farias Brito,BR,-6.9306,-39.5656,72.19,80,13,2.57,few clouds
445,Husavik,IS,66.0449,-17.3389,18.23,89,100,12.66,overcast clouds
446,Hajiganj,BD,23.2511,90.8592,60.19,67,14,3.49,few clouds
447,Smithers,CA,54.7804,-127.1743,32.13,99,100,2.71,overcast clouds
448,Honghu,CN,29.8206,113.4621,33.22,100,100,10.47,light snow
449,Prince Rupert,CA,54.3161,-130.3201,44.69,81,100,14.97,light rain
450,Mackay,AU,-21.15,149.2,82.69,63,51,18.5,broken clouds
451,Uyuni,BO,-20.4597,-66.825,52.68,63,56,15.41,broken clouds
452,Astoria,US,46.1879,-123.8313,47.88,85,0,3.0,clear sky
453,Port Hedland,AU,-20.3167,118.5667,78.85,100,40,5.75,light rain
454,Ust-Omchug,RU,61.15,149.6333,-9.83,72,1,3.8,clear sky
455,Ahipara,NZ,-35.1667,173.1667,75.16,96,95,6.08,overcast clouds
456,Dolhesti,RO,46.8667,27.9,41.41,55,100,8.32,overcast clouds
457,Dong Hoi,VN,17.4833,106.6,70.86,84,100,3.06,overcast clouds
458,Arica,CL,-18.475,-70.3042,68.23,73,0,0.0,clear sky
459,Parnarama,BR,-5.6817,-43.0933,74.68,90,89,2.3,overcast clouds
460,Rupert,US,42.6191,-113.6772,24.75,80,0,3.44,clear sky
461,Shelburne,CA,44.0787,-80.2041,26.26,73,100,15.88,overcast clouds
462,Anori,BR,-3.7728,-61.6442,73.9,98,92,2.68,overcast clouds
463,Beni Mazar,EG,28.4962,30.8029,50.36,56,0,5.17,clear sky
464,Mato Verde,BR,-15.3972,-42.8664,68.4,96,100,1.79,moderate rain
465,Matagami,CA,49.7502,-77.6328,8.71,85,100,0.0,light snow
466,Nabire,ID,-3.3667,135.4833,83.64,71,100,1.43,overcast clouds
467,San Vicente,AR,-26.6167,-54.1333,59.86,61,0,2.91,clear sky
468,Gladstone,AU,-23.85,151.25,83.79,47,75,11.5,broken clouds
469,Jumla,NP,29.2747,82.1838,37.18,47,90,3.58,overcast clouds
470,Oistins,BB,13.0667,-59.5333,77.09,83,40,14.97,scattered clouds
471,Ibra,OM,22.6906,58.5334,60.62,82,1,1.83,clear sky
472,Chilca,PE,-12.5211,-76.7372,70.09,85,100,5.12,overcast clouds
473,Saint Marys,US,30.7305,-81.5465,51.91,94,100,11.01,mist
474,Mersing,MY,2.4312,103.8405,79.68,85,100,12.44,moderate rain
475,Kontagora,NG,10.3999,5.4695,71.76,19,0,6.82,clear sky
476,Roald,NO,62.5833,6.1333,40.33,75,75,16.11,broken clouds
477,Kizema,RU,61.113,44.8302,-2.97,100,99,3.44,overcast clouds
478,Pizarro,CO,4.9533,-77.366,76.48,83,34,0.65,scattered clouds
479,Kadoshkino,RU,54.0257,44.4191,15.28,96,100,5.57,overcast clouds
480,Praia Da Vitoria,PT,38.7333,-27.0667,60.76,92,28,18.05,scattered clouds
481,Hay River,CA,60.8156,-115.7999,23.88,93,43,5.57,scattered clouds
482,Riyadh,SA,24.6877,46.7219,46.54,45,0,5.66,clear sky
483,Gigmoto,PH,13.7796,124.39,79.38,83,51,15.14,broken clouds
484,Valparaiso,CL,-33.0393,-71.6273,65.48,81,100,5.75,overcast clouds
485,Gualaquiza,EC,-3.4,-78.55,63.23,98,98,1.61,light rain
486,Judenburg,AT,47.1667,14.6667,36.34,96,100,5.3,light snow
487,Lamu,KE,-2.2717,40.902,79.02,88,100,13.4,overcast clouds
488,North Bend,US,43.4065,-124.2243,51.17,94,0,5.75,clear sky
489,Beloha,MG,-25.1667,45.05,74.1,93,100,14.36,light rain
490,Bratsk,RU,56.1325,101.6142,12.69,96,100,2.86,overcast clouds
491,Tiznit,MA,29.5833,-9.5,61.21,23,4,6.26,clear sky
492,Te Anau,NZ,-45.4167,167.7167,68.83,42,23,2.89,few clouds
493,Kokoda,PG,-8.8785,147.7407,90.48,55,100,2.28,light rain
494,Bandar-E Anzali,IR,37.4727,49.4622,45.7,70,100,4.88,overcast clouds
495,La Ronge,CA,55.1001,-105.2842,21.76,96,98,5.12,light snow
496,Borzna,UA,51.2546,32.4269,23.67,92,43,10.22,scattered clouds
497,Yar-Sale,RU,66.8333,70.8333,-9.36,99,46,9.08,scattered clouds
498,Mayo,US,38.8876,-76.5119,34.25,62,75,1.01,broken clouds
499,Nagornyy,RU,52.7959,83.5498,11.55,100,84,3.02,broken clouds
500,Arkadelphia,US,34.1209,-93.0538,38.66,86,0,0.0,clear sky
501,Bonthe,SL,7.5264,-12.505,77.09,90,96,3.51,overcast clouds
502,Ballitoville,ZA,-29.539,31.2144,70.25,86,50,3.53,scattered clouds
503,Hukuntsi,BW,-24.0,21.75,71.17,56,55,6.69,broken clouds
504,Vredendal,ZA,-31.6683,18.5012,66.94,59,0,2.35,clear sky
505,Kango,GA,0.1943,10.0951,75.04,96,45,2.44,scattered clouds
506,Cayenne,GF,4.9333,-52.3333,80.1,87,40,3.0,scattered clouds
507,Sijunjung,ID,-0.6876,100.9537,75.4,77,100,2.44,overcast clouds
508,Lashio,MM,22.9333,97.75,55.96,53,0,1.07,clear sky
509,Hirna,ET,9.2167,41.1,54.86,94,100,4.05,overcast clouds
510,Praya,CV,14.9215,-23.5087,68.54,83,0,12.66,clear sky
511,Whitehorse,CA,60.7161,-135.0538,32.31,86,98,11.99,overcast clouds
512,Santa Isabel Do Rio Negro,BR,-0.4139,-65.0192,72.23,97,95,2.35,overcast clouds
513,Flin Flon,CA,54.7682,-101.865,3.13,95,100,9.06,overcast clouds
514,Fortuna,US,40.5982,-124.1573,52.41,91,0,0.0,clear sky
515,Tyup,KG,42.7276,78.3648,21.58,74,100,5.93,overcast clouds
516,Ikon-Khalk,RU,44.3051,41.9142,23.9,92,97,4.61,overcast clouds
517,Mabaruma,GY,8.2,-59.7833,72.88,98,100,2.91,overcast clouds
518,Lixourion,GR,38.2019,20.4314,53.8,89,30,5.99,scattered clouds
519,Leshan,CN,29.5623,103.7639,41.56,84,100,2.91,overcast clouds
520,Conde,BR,-7.2597,-34.9075,78.26,78,20,4.61,few clouds
521,Leningradskiy,RU,69.3833,178.4167,-25.65,99,54,2.46,broken clouds
522,Dire,ML,12.2833,-10.9667,73.27,13,2,2.93,clear sky
523,Boyuibe,BO,-20.4167,-63.2833,63.68,76,4,6.51,clear sky
524,Kantabanji,IN,20.4833,82.9167,59.59,34,100,1.83,overcast clouds
525,Serenje,ZM,-13.2325,30.2352,60.21,98,100,2.39,light rain
526,Zdvinsk,RU,54.7021,78.661,-9.54,100,82,4.7,broken clouds
527,Shirokiy,RU,49.758,129.523,-2.58,95,100,2.51,overcast clouds
528,Porto Novo,BJ,6.4965,2.6036,76.21,88,43,3.87,scattered clouds
529,Paratinga,BR,-12.6906,-43.1842,69.85,93,100,3.15,overcast clouds
530,Tucuman,AR,-26.8241,-65.2226,68.0,83,0,3.44,clear sky
531,Mahajanga,MG,-15.7167,46.3167,77.02,94,20,3.44,few clouds
532,Tabou,CI,4.423,-7.3528,79.03,83,100,6.11,overcast clouds
533,Ushtobe,KZ,45.2514,77.9838,32.25,99,100,13.24,snow
534,Porto Seguro,BR,-16.4497,-39.0647,79.32,89,20,4.61,few clouds
535,Waipawa,NZ,-41.4122,175.5153,60.93,85,100,9.8,overcast clouds
536,Campoverde,PE,-8.4753,-74.8058,78.49,95,100,1.74,overcast clouds
537,Asau,RO,46.4333,26.4,38.32,73,100,6.11,overcast clouds
538,Labrea,BR,-7.2586,-64.7981,74.03,97,99,2.33,heavy intensity rain
539,Miles City,US,46.4083,-105.8406,39.51,56,75,9.22,broken clouds
540,Moussoro,TD,13.6408,16.4901,62.89,13,0,14.16,clear sky
541,Oron,NG,4.8256,8.2343,76.39,90,0,2.71,clear sky
542,Coahuayana,MX,18.7333,-103.6833,81.88,74,52,1.45,broken clouds
543,Uruzgan,AF,32.8333,66.0,33.28,54,0,6.78,clear sky
544,Pitimbu,BR,-7.4706,-34.8086,79.39,72,0,10.2,clear sky
545,Jinchang,CN,38.4953,102.1739,12.47,83,25,4.23,scattered clouds
546,Waiuku,NZ,-37.25,174.75,74.86,91,99,10.02,overcast clouds
547,Havre-Saint-Pierre,CA,50.2334,-63.5986,-1.84,71,100,5.75,overcast clouds
548,Dali,CN,25.7,100.1833,42.6,63,2,2.06,clear sky
549,Sakakah,SA,29.9697,40.2064,46.74,57,0,5.19,clear sky
550,La Paz,BO,-16.5,-68.15,46.38,93,75,2.3,fog
551,Brae,GB,60.3964,-1.353,37.31,53,100,32.79,overcast clouds
552,Menongue,AO,-14.6585,17.691,59.13,97,100,4.54,light rain
553,La Sarre,CA,48.8002,-79.1996,16.95,96,100,3.98,light snow
554,Coihaique,CL,-45.5752,-72.0662,68.61,63,0,3.44,clear sky
555,Dawlatabad,AF,36.4141,64.9053,37.96,87,100,7.49,overcast clouds
556,Monterey,US,36.2505,-121.2516,57.06,36,0,3.04,clear sky
557,Svetlyy,RU,54.675,20.1347,35.96,90,100,17.74,overcast clouds
558,Preston,GB,53.7667,-2.7167,41.86,86,1,8.88,clear sky
559,Khorramshahr,IR,30.4397,48.1664,44.55,38,0,9.22,clear sky
560,Kieta,PG,-6.2167,155.6333,87.06,68,100,11.03,overcast clouds
561,Ardakan,IR,32.31,54.0175,40.19,45,0,4.59,clear sky
562,Soyo,AO,-6.1349,12.3689,76.53,86,100,5.86,overcast clouds
563,Sembe,CG,1.6481,14.5806,67.78,34,33,0.69,scattered clouds
564,Saint-Imier,CH,47.1528,6.9969,41.31,98,75,13.8,moderate rain
565,Haimen,CN,23.1935,116.6142,57.67,85,100,15.66,overcast clouds
566,Nhulunbuy,AU,-12.2333,136.7667,86.61,66,40,9.22,scattered clouds
567,Charlestown,AU,-32.95,151.6667,76.82,61,57,5.01,broken clouds
568,Kearney,US,40.6995,-99.0815,31.33,57,100,3.0,overcast clouds
569,Port Hardy,CA,50.6996,-127.4199,46.76,81,75,19.57,broken clouds
570,Banyo,CM,6.75,11.8167,64.09,30,0,1.41,clear sky
571,Burgeo,CA,47.6167,-57.6152,14.34,70,13,11.01,few clouds
572,San Ramon,US,37.7799,-121.978,61.38,57,0,1.01,clear sky
573,Saint-Augustin,CA,51.226,-58.6502,-23.22,91,16,5.3,few clouds
574,Gilgit,PK,35.9221,74.3087,29.01,81,90,2.37,overcast clouds
575,Vila,PT,42.0304,-8.1588,39.33,80,64,5.44,broken clouds
576,Broome,US,42.2506,-75.833,23.9,71,0,1.01,clear sky
577,Kasempa,ZM,-13.4584,25.8338,63.7,99,100,2.75,moderate rain
578,Camacha,PT,33.0833,-16.3333,59.76,63,40,10.36,scattered clouds
579,Bethanien,NA,-26.502,17.1583,73.53,59,95,5.97,overcast clouds
580,Lishu,CN,43.3047,124.3278,14.92,48,0,6.89,clear sky
581,Bam,IR,29.106,58.357,46.89,36,7,1.41,clear sky
582,Glenwood Springs,US,39.5505,-107.3248,29.32,67,0,9.22,clear sky
583,Toguchin,RU,55.2353,84.3858,-3.21,93,85,3.65,overcast clouds
584,Pando,UY,-34.7167,-55.95,67.98,77,75,14.97,broken clouds
585,Santa Maria,BR,-29.6842,-53.8069,61.16,68,0,1.83,clear sky
586,Coquimbo,CL,-29.9533,-71.3436,64.13,82,100,3.44,overcast clouds
587,Alofi,NU,-19.0595,-169.9187,79.86,78,100,11.79,light rain
588,Zaraza,VE,9.3503,-65.3245,77.45,77,70,9.86,broken clouds
589,Kholtoson,RU,50.2981,103.3097,4.19,84,35,3.13,scattered clouds
590,Nyurba,RU,63.2842,118.3319,-5.35,97,100,6.33,overcast clouds
591,Altinopolis,BR,-21.0256,-47.3739,65.55,98,100,3.24,overcast clouds
592,Road Town,VG,18.4167,-64.6167,75.99,73,73,22.64,broken clouds
593,Romanovo,RU,52.6182,81.2271,-6.32,95,16,5.91,few clouds
594,Ati,TD,13.2154,18.3353,63.34,15,0,11.39,clear sky
595,Vila Do Maio,CV,15.1333,-23.2167,68.79,80,0,12.55,clear sky
596,Megion,RU,61.0296,76.1136,-1.98,98,7,9.48,clear sky
597,Srandakan,ID,-7.9386,110.2506,83.14,73,100,5.3,overcast clouds
598,Namtsy,RU,62.7161,129.6658,-34.49,97,99,2.15,overcast clouds
599,Kindu,CD,-2.95,25.95,69.17,97,100,3.91,moderate rain
600,Iset,RU,56.9779,60.3718,-11.38,100,98,3.89,overcast clouds
601,Sovetskiy,RU,61.3614,63.5842,7.52,95,100,7.14,overcast clouds
602,Laguna,US,38.421,-121.4238,61.09,61,0,4.61,clear sky
603,Boa Vista,BR,2.8197,-60.6733,82.38,65,75,5.75,broken clouds
604,Hiriyur,IN,13.9456,76.6192,69.94,69,65,2.28,broken clouds
605,Hamilton,US,39.1834,-84.5333,31.42,82,0,1.01,clear sky
606,Poso,ID,-1.3959,120.7524,84.9,64,97,3.53,overcast clouds
607,Margate,GB,51.3813,1.3862,42.04,67,4,8.99,clear sky
608,Mazagao,BR,-0.115,-51.2894,77.05,98,100,3.51,overcast clouds
609,Lichtenburg,ZA,-26.152,26.1597,59.88,70,45,8.52,scattered clouds
610,Villeneuve-Saint-Georges,FR,48.7322,2.4493,47.01,72,40,1.99,scattered clouds
611,Puerto Wilches,CO,7.3483,-73.896,75.18,87,34,1.95,scattered clouds
612,Lindi,TZ,-10.0,39.7167,73.99,93,100,4.05,overcast clouds
613,Sistranda,NO,63.7256,8.834,37.36,67,100,26.22,overcast clouds
614,Ulundi,ZA,-28.3352,31.4162,65.25,91,67,2.37,broken clouds
615,Falmouth,GB,50.1544,-5.0711,49.1,83,68,11.07,broken clouds
616,Wilmington,US,34.2257,-77.9447,48.9,69,100,12.66,overcast clouds
617,Jarocin,PL,51.9727,17.5026,37.74,79,97,8.81,light rain
618,Tazovskiy,RU,67.4667,78.7,-25.1,100,89,0.49,overcast clouds
619,Tulun,RU,54.5611,100.5792,11.97,96,100,1.77,overcast clouds
620,Ixtapa,MX,20.7,-105.2,72.63,83,75,8.05,broken clouds
621,Yarmouth,US,41.7057,-70.2286,32.14,72,0,4.61,clear sky
622,Veinticinco De Mayo,AR,-35.4323,-60.1727,63.99,88,0,1.99,clear sky
623,Bosaso,SO,11.2842,49.1816,70.75,76,12,1.72,few clouds
624,Lata,PT,40.1629,-8.3327,45.05,61,12,4.12,few clouds
625,Tarko-Sale,RU,64.9225,77.785,-26.0,100,79,4.54,broken clouds
626,Fengxian,CN,34.7039,116.5872,37.72,42,100,5.53,overcast clouds
627,Kaeo,NZ,-35.1,173.7833,77.32,97,100,6.17,overcast clouds
628,Umm Bab,QA,25.2142,50.8072,59.43,56,0,20.0,clear sky
629,Rincon,US,32.296,-81.2354,44.85,90,100,9.22,overcast clouds
630,Yamaranguila,HN,14.2833,-88.25,54.84,90,76,6.6,broken clouds
631,Opuwo,NA,-18.0607,13.84,67.19,48,98,2.26,overcast clouds
632,Turbat,PK,26.0023,63.044,64.11,94,0,1.41,clear sky
633,Arlit,NE,18.7369,7.3853,61.79,12,0,8.21,clear sky
634,Praia,CV,14.9215,-23.5087,68.54,83,0,12.66,clear sky
635,Nelson Bay,AU,-32.7167,152.15,77.09,56,49,17.63,scattered clouds
636,Lasa,IT,46.6166,10.7002,38.14,91,100,5.7,snow
637,Lubango,AO,-14.9172,13.4925,61.97,51,100,2.17,overcast clouds
638,Quatre Cocos,MU,-20.2078,57.7625,76.08,84,100,9.55,light rain
639,Visby,SE,57.6409,18.296,35.82,87,100,12.66,overcast clouds
640,Nago,JP,26.5881,127.9761,64.47,64,87,9.55,overcast clouds
641,Sangmelima,CM,2.9333,11.9833,62.06,43,27,2.3,scattered clouds
642,Kiunga,PG,-6.1219,141.2906,92.3,53,100,0.49,overcast clouds
643,Mahenge,TZ,-8.6833,36.7167,63.23,96,100,0.49,light rain
644,Rey Bouba,CM,8.6724,14.1786,69.04,20,5,1.36,clear sky
645,Pyrzyce,PL,53.1462,14.8926,39.56,93,100,16.87,overcast clouds
646,Lagos,NG,6.5833,3.75,74.07,96,36,1.43,scattered clouds
647,Vanimo,PG,-2.6741,141.3028,83.37,74,100,3.76,overcast clouds
648,Faya,SA,18.3851,42.4509,48.72,83,10,3.15,clear sky
649,Bahia Blanca,AR,-38.7196,-62.2724,62.92,75,9,7.27,clear sky
650,Kaifeng,CN,34.7911,114.3483,37.9,33,100,1.63,overcast clouds
651,Shingu,JP,33.7333,135.9833,40.91,41,85,9.1,overcast clouds
652,Montepuez,MZ,-13.1256,38.9997,68.61,96,91,3.33,overcast clouds
653,Kletskaya,RU,49.3145,43.0584,29.07,95,99,10.36,overcast clouds
654,Dhangadhi,NP,28.7079,80.5961,50.65,82,6,1.16,clear sky
655,Sembakung,ID,3.8167,117.25,82.33,81,100,2.08,overcast clouds
656,Iwanai,JP,42.9744,140.5089,29.35,67,100,10.67,overcast clouds
657,Alzamay,RU,55.5562,98.6644,13.08,91,100,2.75,overcast clouds
658,Madaoua,NE,14.073,5.96,62.24,14,0,10.94,clear sky
659,Mbandaka,CD,0.0487,18.2603,72.72,42,77,1.21,broken clouds
660,Charters Towers,AU,-20.1,146.2667,83.05,46,98,7.87,overcast clouds
661,Tilichiki,RU,60.4667,166.1,-5.12,78,1,9.13,clear sky
662,Oga,IT,46.4631,10.347,30.74,86,100,5.57,snow
663,Sakaiminato,JP,35.55,133.2333,43.23,54,97,9.04,overcast clouds
664,Hanna,CA,51.6334,-111.9018,34.18,69,17,11.99,few clouds
665,Natchez,US,31.5604,-91.4032,40.89,65,100,0.0,overcast clouds
666,Shintomi,JP,32.0785,131.4723,45.41,40,99,2.77,overcast clouds
667,Reinosa,ES,42.9996,-4.138,40.21,79,98,4.5,overcast clouds
668,Esmeraldas,BR,-19.7625,-44.3139,68.86,98,100,1.5,overcast clouds
669,Middle Island,US,40.8843,-72.9373,31.89,80,100,0.0,overcast clouds
670,Prado,BR,-17.3411,-39.2208,76.26,89,86,7.07,overcast clouds
671,Providencia,MX,28.7167,-111.5833,69.85,40,0,11.99,clear sky
672,Garlasco,IT,45.1974,8.9238,42.3,95,17,5.61,few clouds
673,Adrar,MR,20.5022,-10.0711,64.27,11,0,9.91,clear sky
674,Vostok,RU,46.4856,135.8833,5.11,83,98,4.14,overcast clouds
675,Broken Hill,AU,-31.95,141.4333,80.58,29,0,16.2,clear sky
676,Kichera,RU,55.9375,110.0997,10.33,94,100,1.66,light snow
677,Kloulklubed,PW,7.0419,134.2556,84.7,79,40,22.59,scattered clouds
678,Acari,PE,-15.4311,-74.6158,73.96,72,14,3.33,few clouds
679,Thaba-Tseka,LS,-29.522,28.6084,51.3,85,12,1.07,few clouds
680,Porto Santo,PT,33.072,-16.3415,62.51,63,40,10.36,scattered clouds
681,Moyale,KE,3.5167,39.0584,70.86,30,100,10.2,overcast clouds
682,Sainte-Marie,RE,-20.8968,55.5496,78.96,83,40,11.5,scattered clouds
683,Krasnoarmeysk,RU,51.0239,45.6969,13.3,97,87,6.24,overcast clouds
684,Mamou,GN,10.5,-12.0,68.14,18,0,3.04,clear sky
685,Bantou,CN,26.2151,117.4893,51.06,95,100,2.42,overcast clouds
686,High Level,CA,58.5169,-117.136,36.43,76,48,7.96,scattered clouds
687,Henties Bay,NA,-22.116,14.2845,67.86,84,98,5.06,overcast clouds
688,Killarney,IE,52.05,-9.5167,52.9,96,100,4.18,overcast clouds
689,Yunyang,CN,33.4474,112.7142,35.62,45,100,6.58,light rain
690,Pallasovka,RU,50.05,46.8833,10.81,99,93,4.79,overcast clouds
691,Neiafu,TO,-18.65,-173.9833,76.77,86,100,20.45,moderate rain
692,Saryg-Sep,RU,51.5,95.6,-16.04,99,98,2.35,overcast clouds
693,Biak,ID,-0.9131,122.8766,82.76,65,98,1.86,overcast clouds
694,Carballo,ES,43.213,-8.691,46.87,93,41,2.28,scattered clouds
695,Talara,PE,-4.5772,-81.2719,71.44,85,40,9.98,scattered clouds
